[
    {
        "icao": "LFBO",
        "iata": "TLS",
        "name": "Toulouse-Blagnac Airport",
        "city": "Toulouse\/Blagnac",
        "state": "Occitanie",
        "country": "FR",
        "elevation": 499,
        "lat": 43.6291007996,
        "lon": 1.3638199568,
        "tz": "Europe\/Paris"
    },
    {
        "icao": "LTBA",
        "iata": "IST",
        "name": "Ataturk International Airport",
        "city": "Istanbul",
        "state": "Istanbul",
        "country": "TR",
        "elevation": 163,
        "lat": 40.9768981934,
        "lon": 28.8145999908,
        "tz": "Europe\/Istanbul"
    },
    {
        "icao": "EHAM",
        "iata": "AMS",
        "name": "Amsterdam Airport Schiphol",
        "city": "Amsterdam",
        "state": "North-Holland",
        "country": "NL",
        "elevation": -11,
        "lat": 52.3086013794,
        "lon": 4.7638897896,
        "tz": "Europe\/Amsterdam"
    },
    {
        "icao": "LFPG",
        "iata": "CDG",
        "name": "Charles de Gaulle International Airport",
        "city": "Paris",
        "state": "\u00cele-de-France",
        "country": "FR",
        "elevation": 392,
        "lat": 49.0127983093,
        "lon": 2.5499999523,
        "tz": "Europe\/Paris"
    },
    {
        "icao": "LFPO",
        "iata": "ORY",
        "name": "Paris-Orly Airport",
        "city": "Paris",
        "state": "\u00cele-de-France",
        "country": "FR",
        "elevation": 291,
        "lat": 48.7252998352,
        "lon": 2.3594400883,
        "tz": "Europe\/Paris"
    },
    {
        "icao": "LEBL",
        "iata": "BCN",
        "name": "Barcelona International Airport",
        "city": "Barcelona",
        "state": "Catalonia",
        "country": "ES",
        "elevation": 12,
        "lat": 41.2971000671,
        "lon": 2.0784599781,
        "tz": "Europe\/Madrid"
    },
    {
        "icao": "LIMC",
        "iata": "MXP",
        "name": "Malpensa International Airport",
        "city": "Milan",
        "state": "Lombardy",
        "country": "IT",
        "elevation": 768,
        "lat": 45.6305999756,
        "lon": 8.7281103134,
        "tz": "Europe\/Rome"
    },
    {
        "icao": "LIRF",
        "iata": "FCO",
        "name": "Leonardo Da Vinci (Fiumicino) International Airport",
        "city": "Rome",
        "state": "Latium",
        "country": "IT",
        "elevation": 15,
        "lat": 41.8045005798,
        "lon": 12.2508001328,
        "tz": "Europe\/Rome"
    },
    {
        "icao": "00FL",
        "iata": "",
        "name": "River Oak Airport",
        "city": "Okeechobee",
        "state": "Florida",
        "country": "US",
        "elevation": 35,
        "lat": 27.2308998108,
        "lon": -80.9692001343,
        "tz": "America\/New_York"
    },
    {
        "icao": "LOWW",
        "iata": "VIE",
        "name": "Vienna International Airport",
        "city": "Vienna",
        "state": "Lower-Austria",
        "country": "AT",
        "elevation": 600,
        "lat": 48.1102981567,
        "lon": 16.5697002411,
        "tz": "Europe\/Vienna"
    }
]
